% program   : RTKPOST ver.2.4.2
% inp file  : C:\userdata\projects\rgps\easy\site247j.01o
% inp file  : C:\userdata\projects\rgps\easy\site24~1.01o
% inp file  : C:\userdata\projects\rgps\easy\site247j.01n
% obs start : 2001/09/04 09:40:00.0 GPST (week1130 207600.0s)
% obs end   : 2001/09/04 09:40:22.0 GPST (week1130 207622.0s)
% pos mode  : moving-base
% freqs     : L1+L2
% solution  : forward
% elev mask : 15.0 deg
% dynamics  : off
% tidecorr  : off
% ionos opt : broadcast
% tropo opt : saastamoinen
% ephemeris : broadcast
% amb res   : continuous
% val thres : 3.0
% antenna1  :                       ( 0.0000  0.0000  0.0000)
% antenna2  :                       ( 0.0000  0.0000  0.0000)
%
% (lat/lon/height=WGS84/ellipsoidal,Q=1:fix,2:float,3:sbas,4:dgps,5:single,6:ppp,ns=# of satellites)
%  GPST                  latitude(deg) longitude(deg)  height(m)   Q  ns   sdn(m)   sde(m)   sdu(m)  sdne(m)  sdeu(m)  sdun(m) age(s)  ratio
2001/09/04 09:40:00.000   57.015504988    9.987798966    48.8611   1   6   0.0083   0.0045   0.0154   0.0025   0.0027   0.0088  -0.00    9.0
2001/09/04 09:40:01.000   57.015504659    9.987804233    47.8712   1   6   0.0083   0.0044   0.0154   0.0024   0.0028   0.0088  -0.00    8.2
2001/09/04 09:40:02.000   57.015504059    9.987804130    48.0886   1   6   0.0083   0.0048   0.0154   0.0023   0.0029   0.0088  -0.00    8.1
2001/09/04 09:40:03.000   57.015505417    9.987802561    48.4633   1   6   0.0083   0.0044   0.0154   0.0025   0.0027   0.0088  -0.00    8.8
2001/09/04 09:40:04.000   57.015506528    9.987800996    48.3677   1   6   0.0083   0.0046   0.0154   0.0025   0.0027   0.0088  -0.00   11.0
2001/09/04 09:40:05.000   57.015499559    9.987800819    47.9010   1   6   0.0083   0.0044   0.0154   0.0025   0.0026   0.0088  -0.00   14.8
2001/09/04 09:40:06.000   57.015500512    9.987793200    48.1104   1   6   0.0083   0.0047   0.0154   0.0023   0.0028   0.0088  -0.00   17.2
2001/09/04 09:40:07.000   57.015503094    9.987803761    48.8954   1   6   0.0084   0.0049   0.0154   0.0024   0.0030   0.0088  -0.00   19.0
2001/09/04 09:40:08.000   57.015503368    9.987804028    48.2877   1   6   0.0083   0.0042   0.0154   0.0027   0.0025   0.0088  -0.00   19.7
2001/09/04 09:40:09.000   57.015501000    9.987802923    48.2943   1   6   0.0083   0.0048   0.0154   0.0022   0.0029   0.0088  -0.00   21.5
2001/09/04 09:40:10.000   57.015499211    9.987803596    47.2179   1   6   0.0083   0.0044   0.0154   0.0026   0.0027   0.0088  -0.00   22.0
2001/09/04 09:40:11.000   57.015500544    9.987800688    48.4278   1   6   0.0083   0.0048   0.0154   0.0023   0.0031   0.0088  -0.00   23.9
2001/09/04 09:40:12.000   57.015502160    9.987802400    48.1623   1   6   0.0082   0.0044   0.0154   0.0027   0.0026   0.0089  -0.00   25.9
2001/09/04 09:40:13.000   57.015500924    9.987804205    47.7512   1   6   0.0083   0.0046   0.0154   0.0025   0.0028   0.0089  -0.00   28.2
2001/09/04 09:40:14.000   57.015501089    9.987800907    46.9972   1   6   0.0083   0.0047   0.0154   0.0023   0.0027   0.0089  -0.00   28.0
2001/09/04 09:40:15.000   57.015503186    9.987805427    47.8837   1   6   0.0083   0.0044   0.0154   0.0027   0.0028   0.0088  -0.00   28.6
2001/09/04 09:40:16.000   57.015500167    9.987806677    47.2365   1   6   0.0083   0.0044   0.0154   0.0025   0.0027   0.0089  -0.00   30.2
2001/09/04 09:40:17.000   57.015500467    9.987807239    47.1363   1   6   0.0083   0.0046   0.0154   0.0026   0.0027   0.0088  -0.00   30.6
2001/09/04 09:40:18.000   57.015499874    9.987806716    47.0137   1   6   0.0083   0.0043   0.0154   0.0025   0.0026   0.0088  -0.00   29.5
2001/09/04 09:40:19.000   57.015502063    9.987802414    47.5795   1   6   0.0084   0.0041   0.0154   0.0025   0.0029   0.0088  -0.00   28.9
2001/09/04 09:40:20.000   57.015499334    9.987797970    47.1267   1   6   0.0084   0.0046   0.0154   0.0025   0.0028   0.0088  -0.00   28.7
2001/09/04 09:40:21.000   57.015501241    9.987803811    47.9827   1   6   0.0082   0.0046   0.0154   0.0024   0.0027   0.0088  -0.00   27.2
2001/09/04 09:40:22.000   57.015501717    9.987804844    47.1858   1   6   0.0083   0.0045   0.0154   0.0027   0.0029   0.0088  -0.00   25.7
